{"type":"FeatureCollection","features":[
{
"type":"Feature",
"geometry":{"type":"Point","coordinates":[-1.6880314,12.0753083]},
"properties":{"Type":"country","Name":"Burkina Faso","Name(en)":"Burkina Faso","Name(ru)":"Буркина-Фасо","Population":16751455}
},
{
"type":"Feature",
"geometry":{"type":"Point","coordinates":[44.2832964,-12.2045176]},
"properties":{"Type":"country","Name":"Comores","Name(en)":"Comoros","Name(ru)":"Коморы","Population":614000}
},
{
"type":"Feature",
"geometry":{"type":"Point","coordinates":[6.9648718,0.8875498]},
"properties":{"Type":"country","Name":"São Tomé e Príncipe","Name(en)":"São Tomé and Príncipe","Name(ru)":"Сан-Томе и Принсипи","Population":206178}
},
{
"type":"Feature",
"geometry":{"type":"Point","coordinates":[2.2584408,9.5293472]},
"properties":{"Type":"country","Name":"Bénin","Name(en)":"Benin","Name(ru)":"Бенин","Population":8971944}
},
{
"type":"Feature",
"geometry":{"type":"Point","coordinates":[-15.4900464,13.470062]},
"properties":{"Type":"country","Name":"The Gambia","Name(en)":"Gambia","Name(ru)":"Гамбия","Population":1713267}
},
{
"type":"Feature",
"geometry":{"type":"Point","coordinates":[-10.7083587,10.7226226]},
"properties":{"Type":"country","Name":"Guinée","Name(en)":"Guinea","Name(ru)":"Гвинея","Population":10187320}
},
{
"type":"Feature",
"geometry":{"type":"Point","coordinates":[-14.9000214,12.100035]},
"properties":{"Type":"country","Name":"Guiné-Bissau","Name(en)":"Guinea-Bissau","Name(ru)":"Гвинея-Бисау","Population":1449230}
},
{
"type":"Feature",
"geometry":{"type":"Point","coordinates":[-2.2900239,16.3700359]},
"properties":{"Type":"country","Name":"Mali","Name(en)":"Mali","Name(ru)":"Мали","Population":14517176}
},
{
"type":"Feature",
"geometry":{"type":"Point","coordinates":[29.4917691,14.5844444]},
"properties":{"Type":"country","Name":"السودان","Name(en)":"Sudan","Name(ru)":"Судан","Population":39379358}
},
{
"type":"Feature",
"geometry":{"type":"Point","coordinates":[19.0156172,15.6134137]},
"properties":{"Type":"country","Name":"Chad تشاد","Name(en)":"Chad","Name(ru)":"Чад","Population":10329208}
},
{
"type":"Feature",
"geometry":{"type":"Point","coordinates":[24.991639,-28.8166236]},
"properties":{"Type":"country","Name":"South Africa","Name(en)":"South Africa","Name(ru)":"Южно-Африканская Республика","Population":49991300}
},
{
"type":"Feature",
"geometry":{"type":"Point","coordinates":[55.4540146,-4.6574977]},
"properties":{"Type":"country","Name":"Seychelles","Name(en)":"Seychelles","Name(ru)":"Сейшелы","Population":90024}
},
{
"type":"Feature",
"geometry":{"type":"Point","coordinates":[31.3991317,-26.5624806]},
"properties":{"Type":"country","Name":"Swaziland","Name(en)":"Swaziland","Name(ru)":"Свазиленд","Population":1370424}
},
{
"type":"Feature",
"geometry":{"type":"Point","coordinates":[17.5691241,-11.8775768]},
"properties":{"Type":"country","Name":"Angola","Name(en)":"Angola","Name(ru)":"Ангола","Population":12531357}
},
{
"type":"Feature",
"geometry":{"type":"Point","coordinates":[29.8870575,-3.3634357]},
"properties":{"Type":"country","Name":"Burundi","Name(en)":"Burundi","Name(ru)":"Бурунди","Population":10557000}
},
{
"type":"Feature",
"geometry":{"type":"Point","coordinates":[-24.0083947,16.0000552]},
"properties":{"Type":"country","Name":"Cabo Verde","Name(en)":"Cabo Verde","Name(ru)":"Кабо-Верде","Population":516000}
},
{
"type":"Feature",
"geometry":{"type":"Point","coordinates":[11.6899699,-0.8999695]},
"properties":{"Type":"country","Name":"Gabon","Name(en)":"Gabon","Name(ru)":"Габон","Population":1576665}
},
{
"type":"Feature",
"geometry":{"type":"Point","coordinates":[-9.3658524,5.7499721]},
"properties":{"Type":"country","Name":"Liberia","Name(en)":"Liberia","Name(ru)":"Либерия","Population":3476608}
},
{
"type":"Feature",
"geometry":{"type":"Point","coordinates":[33.9301963,-13.2687204]},
"properties":{"Type":"country","Name":"Malawi","Name(en)":"Malawi","Name(ru)":"Малави","Population":14212000}
},
{
"type":"Feature",
"geometry":{"type":"Point","coordinates":[34.9144977,-19.302233]},
"properties":{"Type":"country","Name":"Mozambique","Name(en)":"Mozambique","Name(ru)":"Мозамбик","Population":21397000}
},
{
"type":"Feature",
"geometry":{"type":"Point","coordinates":[17.3231107,-23.2335499]},
"properties":{"Type":"country","Name":"Namibia","Name(en)":"Namibia","Name(ru)":"Намибия","Population":2113077}
},
{
"type":"Feature",
"geometry":{"type":"Point","coordinates":[9.3238432,17.7356214]},
"properties":{"Type":"country","Name":"Niger","Name(en)":"Niger","Name(ru)":"Нигер","Population":17129076}
},
{
"type":"Feature",
"geometry":{"type":"Point","coordinates":[30.0644358,-1.9646631]},
"properties":{"Type":"country","Name":"Rwanda","Name(en)":"Rwanda","Name(ru)":"Руанда","Population":11400000}
},
{
"type":"Feature",
"geometry":{"type":"Point","coordinates":[1.0199765,8.7800265]},
"properties":{"Type":"country","Name":"Togo","Name(en)":"Togo","Name(ru)":"Того","Population":6587239}
},
{
"type":"Feature",
"geometry":{"type":"Point","coordinates":[24.5928742,-23.1681782]},
"properties":{"Type":"country","Name":"Botswana","Name(en)":"Botswana","Name(ru)":"Ботсвана","Population":1639833}
},
{
"type":"Feature",
"geometry":{"type":"Point","coordinates":[-1.0800271,8.0300284]},
"properties":{"Type":"country","Name":"Ghana","Name(en)":"Ghana","Name(ru)":"Гана","Population":25241998}
},
{
"type":"Feature",
"geometry":{"type":"Point","coordinates":[10.5170357,1.613172]},
"properties":{"Type":"country","Name":"Guinea Ecuatorial","Name(en)":"Equatorial Guinea","Name(ru)":"Экваториальная Гвинея","Population":1000000}
},
{
"type":"Feature",
"geometry":{"type":"Point","coordinates":[38.4313975,1.4419683]},
"properties":{"Type":"country","Name":"Kenya","Name(en)":"Kenya","Name(ru)":"Кения","Population":38610097}
},
{
"type":"Feature",
"geometry":{"type":"Point","coordinates":[-11.8400269,8.6400349]},
"properties":{"Type":"country","Name":"Sierra Leone","Name(en)":"Sierra Leone","Name(ru)":"Сьерра-Леоне","Population":5293327}
},
{
"type":"Feature",
"geometry":{"type":"Point","coordinates":[35.7878438,-6.5247123]},
"properties":{"Type":"country","Name":"Tanzania","Name(en)":"Tanzania","Name(ru)":"Танзания","Population":41048532}
},
{
"type":"Feature",
"geometry":{"type":"Point","coordinates":[-5.5679458,7.9897371]},
"properties":{"Type":"country","Name":"Côte d'Ivoire","Name(en)":"Ivory Coast","Name(ru)":"Кот-д’Ивуар","Population":20152894}
},
{
"type":"Feature",
"geometry":{"type":"Point","coordinates":[13.1535811,4.6125522]},
"properties":{"Type":"country","Name":"Cameroun - Cameroon","Name(en)":"Cameroon","Name(ru)":"Камерун","Population":20549221}
},
{
"type":"Feature",
"geometry":{"type":"Point","coordinates":[29.2675469,26.2540493]},
"properties":{"Type":"country","Name":"مصر","Name(en)":"Egypt","Name(ru)":"Египет","Population":83082869}
},
{
"type":"Feature",
"geometry":{"type":"Point","coordinates":[37.9999668,15.9500319]},
"properties":{"Type":"country","Name":"ኤርትራ","Name(en)":"Eritrea","Name(ru)":"Эритрея","Population":5293800}
},
{
"type":"Feature",
"geometry":{"type":"Point","coordinates":[-9.2399263,20.2540382]},
"properties":{"Type":"country","Name":"موريتانيا","Name(en)":"Mauritania","Name(ru)":"Мавритания","Population":3205060}
},
{
"type":"Feature",
"geometry":{"type":"Point","coordinates":[7.9999721,9.6000359]},
"properties":{"Type":"country","Name":"Nigeria","Name(en)":"Nigeria","Name(ru)":"Нигерия","Population":152217341}
},
{
"type":"Feature",
"geometry":{"type":"Point","coordinates":[49.083416,8.3676771]},
"properties":{"Type":"country","Name":"الصومال","Name(en)":"Somalia","Name(ru)":"Сомали","Population":9558666}
},
{
"type":"Feature",
"geometry":{"type":"Point","coordinates":[9.400138,33.8439408]},
"properties":{"Type":"country","Name":"Tunisie تونس","Name(en)":"Tunisia","Name(ru)":"Тунис","Population":10276158}
},
{
"type":"Feature",
"geometry":{"type":"Point","coordinates":[32.2166578,1.5333554]},
"properties":{"Type":"country","Name":"Uganda","Name(en)":"Uganda","Name(ru)":"Уганда","Population":34509205}
},
{
"type":"Feature",
"geometry":{"type":"Point","coordinates":[2.9999825,28.0000272]},
"properties":{"Type":"country","Name":"الجزائر Algérie","Name(en)":"Algeria","Name(ru)":"Алжир","Population":33769669}
},
{
"type":"Feature",
"geometry":{"type":"Point","coordinates":[19.9981227,7.0323598]},
"properties":{"Type":"country","Name":"Centrafrique","Name(en)":"Central African Republic","Name(ru)":"Центральноафриканская Республика","Population":4500000}
},
{
"type":"Feature",
"geometry":{"type":"Point","coordinates":[18.1236723,26.8234472]},
"properties":{"Type":"country","Name":"ليبيا","Name(en)":"Libya","Name(ru)":"Ливия","Population":5613380}
},
{
"type":"Feature",
"geometry":{"type":"Point","coordinates":[46.4416422,-18.9249604]},
"properties":{"Type":"country","Name":"Madagascar","Name(en)":"Madagascar","Name(ru)":"Мадагаскар","Population":22005222}
},
{
"type":"Feature",
"geometry":{"type":"Point","coordinates":[-7.3366043,31.1728192]},
"properties":{"Type":"country","Name":"Maroc  المغرب ⵍⵎⴰⵖⵔⵉⴱ","Name(en)":"Morocco","Name(ru)":"Марокко","Population":34435719}
},
{
"type":"Feature",
"geometry":{"type":"Point","coordinates":[15.6419155,-0.7264327]},
"properties":{"Type":"country","Name":"République du Congo","Name(en)":"Republic of the Congo","Name(ru)":"Конго","Population":3999000}
},
{
"type":"Feature",
"geometry":{"type":"Point","coordinates":[-14.4529612,14.4750607]},
"properties":{"Type":"country","Name":"Sénégal","Name(en)":"Senegal","Name(ru)":"Сенегал","Population":12643799}
},
{
"type":"Feature",
"geometry":{"type":"Point","coordinates":[27.5599164,-14.5186239]},
"properties":{"Type":"country","Name":"Zambia","Name(en)":"Zambia","Name(ru)":"Замбия","Population":11668000}
},
{
"type":"Feature",
"geometry":{"type":"Point","coordinates":[23.8222636,-2.9814344]},
"properties":{"Type":"country","Name":"République Démocratique du Congo","Name(en)":"Democratic Republic of the Congo","Name(ru)":"Демократическая Республика Конго","Population":68692542}
},
{
"type":"Feature",
"geometry":{"type":"Point","coordinates":[29.6667897,7.8699431]},
"properties":{"Type":"country","Name":"South Sudan","Name(en)":"South Sudan","Name(ru)":"Южный Судан","Population":8260490}
},
{
"type":"Feature",
"geometry":{"type":"Point","coordinates":[-4.9721717,-16.6754836]},
"properties":{"Type":"country","Name":"Saint Helena, Ascension and Tristan da Cunha","Name(en)":"Saint Helena, Ascension and Tristan da Cunha","Name(ru)":"Острова Святой Елены, Вознесения и Тристан-да-Кунья","Population":6563}
},
{
"type":"Feature",
"geometry":{"type":"Point","coordinates":[29.7468414,-18.4554963]},
"properties":{"Type":"country","Name":"Zimbabwe","Name(en)":"Zimbabwe","Name(ru)":"Зимбабве","Population":12521000}
},
{
"type":"Feature",
"geometry":{"type":"Point","coordinates":[57.5703566,-20.2759451]},
"properties":{"Type":"country","Name":"Mauritius","Name(en)":"Mauritius","Name(ru)":"Маврикий","Population":1274189}
},
{
"type":"Feature",
"geometry":{"type":"Point","coordinates":[38.6521203,10.2116702]},
"properties":{"Type":"country","Name":"ኢትዮጵያ Ethiopia","Name(en)":"Ethiopia","Name(ru)":"Эфиопия","Population":78254090}
},
{
"type":"Feature",
"geometry":{"type":"Point","coordinates":[-12.7385445,23.8567121]},
"properties":{"Type":"country","Name":"الجمهورية العربية الصحراوية الديمقراطية‎","Name(en)":"Sahrawi Arab Democratic Republic","Name(ru)":"No data","Population":507160}
},
{
"type":"Feature",
"geometry":{"type":"Point","coordinates":[28.3350193,-29.6039267]},
"properties":{"Type":"country","Name":"Lesotho","Name(en)":"Lesotho","Name(ru)":"No data","Population":0}
},
{
"type":"Feature",
"geometry":{"type":"Point","coordinates":[-2.2575146,12.9615017]},
"properties":{"Type":"country","Name":"SEMUS YAKO","Name(en)":"No data","Name(ru)":"No data","Population":0}
},
{}]}